{
"type": "FeatureCollection",
"crs": { "type": "name", "properties": { "name": "urn:ogc:def:crs:OGC:1.3:CRS84" } },
                                                                                
"features": [
{ "type": "Feature", "properties": { "OBJECTID": 1, "Inscripci": "", "Fecha_Prov": "", "Caudal__l_": "", "Codigo": "SC143", "Nombre_de": "Pozo de la Nieve", "Subtipo": "Convencional", "Municipio": "Santa Cruz", "X_UTM": 225213.147100, "Y__UTM": 3181318.073330, "Altitud__m": 1676, "Paraje": "Topo de Las Moraditas", "Peligrosid": "MEDIO", "Estado": "Inactiva" }, "geometry": { "type": "Point", "coordinates": [ -17.813329, 28.73001 ] } },
{ "type": "Feature", "properties": { "OBJECTID": 2, "Inscripci": "", "Fecha_Prov": "", "Caudal__l_": "", "Codigo": "SS102", "Nombre_de": "Lito-La Galga", "Subtipo": "Convencional", "Municipio": "San Andres y Sauces", "X_UTM": 230850.337820, "Y__UTM": 3186728.035360, "Altitud__m": 48, "Paraje": "Barranco del Cubo", "Peligrosid": "ALTO", "Estado": "Inactiva" }, "geometry": { "type": "Point", "coordinates": [ -17.756951, 28.779973 ] } },
{ "type": "Feature", "properties": { "OBJECTID": 3, "Inscripci": "", "Fecha_Prov": "", "Caudal__l_": "", "Codigo": "PL101", "Nombre_de": "Las Pilas y El Espigon", "Subtipo": "Convencional", "Municipio": "PuntaLlana", "X_UTM": 232886.349630, "Y__UTM": 3182096.015300, "Altitud__m": 141, "Paraje": "Martin Luis", "Peligrosid": "MUY BAJO", "Estado": "Activa" }, "geometry": { "type": "Point", "coordinates": [ -17.735026, 28.738635 ] } },
{ "type": "Feature", "properties": { "OBJECTID": 4, "Inscripci": "", "Fecha_Prov": "", "Caudal__l_": "", "Codigo": "SC101", "Nombre_de": "San Isidro 1", "Subtipo": "Convencional", "Municipio": "Santa Cruz", "X_UTM": 229251.017350, "Y__UTM": 3175427.805460, "Altitud__m": 25, "Paraje": "Avenida Los Indianos", "Peligrosid": "ALTO", "Estado": "Inactiva" }, "geometry": { "type": "Point", "coordinates": [ -17.770628, 28.677758 ] } },
{ "type": "Feature", "properties": { "OBJECTID": 5, "Inscripci": "", "Fecha_Prov": "", "Caudal__l_": "", "Codigo": "SC102", "Nombre_de": "Herederos de Luisa Perez", "Subtipo": "Convencional", "Municipio": "Santa Cruz", "X_UTM": 229794.500000, "Y__UTM": 3176155.500000, "Altitud__m": 25, "Paraje": "Santa  Cruz de La Palma", "Peligrosid": "BAJO", "Estado": "Inactiva" }, "geometry": { "type": "Point", "coordinates": [ -17.765244, 28.684432 ] } },
{ "type": "Feature", "properties": { "OBJECTID": 6, "Inscripci": "", "Fecha_Prov": "", "Caudal__l_": "", "Codigo": "SC103", "Nombre_de": "Rodriguez Conde", "Subtipo": "Convencional", "Municipio": "Santa Cruz", "X_UTM": 229773.030000, "Y__UTM": 3176035.860000, "Altitud__m": 25, "Paraje": "Santa Cruz de la palma", "Peligrosid": "BAJO", "Estado": "Inactiva" }, "geometry": { "type": "Point", "coordinates": [ -17.765435, 28.683349 ] } },
{ "type": "Feature", "properties": { "OBJECTID": 7, "Inscripci": "", "Fecha_Prov": "", "Caudal__l_": "", "Codigo": "BA101", "Nombre_de": "Llano del Pozo-Unelco Sur", "Subtipo": "Convencional", "Municipio": "Brena Alta", "X_UTM": 229590.910230, "Y__UTM": 3173799.291080, "Altitud__m": 14, "Paraje": "Los Guinchos", "Peligrosid": "MUY BAJO", "Estado": "Inactiva" }, "geometry": { "type": "Point", "coordinates": [ -17.766767, 28.663147 ] } },
{ "type": "Feature", "properties": { "OBJECTID": 8, "Inscripci": "", "Fecha_Prov": "", "Caudal__l_": "", "Codigo": "BA102", "Nombre_de": "Unelco Interior 2", "Subtipo": "Convencional", "Municipio": "Brena Alta", "X_UTM": 229539.449200, "Y__UTM": 3174028.730710, "Altitud__m": 4, "Paraje": "Playa Los Guinchos", "Peligrosid": "MUY BAJO", "Estado": "Inactiva" }, "geometry": { "type": "Point", "coordinates": [ -17.767347, 28.665204 ] } },
{ "type": "Feature", "properties": { "OBJECTID": 9, "Inscripci": "", "Fecha_Prov": "", "Caudal__l_": "", "Codigo": "BA103", "Nombre_de": "Unelco Interior 3", "Subtipo": "Convencional", "Municipio": "Brena Alta", "X_UTM": 229535.405600, "Y__UTM": 3174039.458920, "Altitud__m": 4, "Paraje": "Playa Los Guinchos", "Peligrosid": "MUY BAJO", "Estado": "Inactiva" }, "geometry": { "type": "Point", "coordinates": [ -17.767391, 28.6653 ] } },
{ "type": "Feature", "properties": { "OBJECTID": 10, "Inscripci": "", "Fecha_Prov": "", "Caudal__l_": "", "Codigo": "BA104", "Nombre_de": "Unelco Interior 4", "Subtipo": "Convencional", "Municipio": "Brena Alta", "X_UTM": 229530.588850, "Y__UTM": 3174049.895200, "Altitud__m": 5, "Paraje": "Playa Los Guinchos", "Peligrosid": "MUY BAJO", "Estado": "Inactiva" }, "geometry": { "type": "Point", "coordinates": [ -17.767443, 28.665393 ] } },
{ "type": "Feature", "properties": { "OBJECTID": 11, "Inscripci": "", "Fecha_Prov": "", "Caudal__l_": "", "Codigo": "SC104", "Nombre_de": "Los Pasitos", "Subtipo": "Convencional", "Municipio": "Santa Cruz", "X_UTM": 229644.000000, "Y__UTM": 3176710.170000, "Altitud__m": 63, "Paraje": "Barranco de Las Nieves", "Peligrosid": "MUY BAJO", "Estado": "Inactiva" }, "geometry": { "type": "Point", "coordinates": [ -17.766914, 28.689402 ] } },
{ "type": "Feature", "properties": { "OBJECTID": 12, "Inscripci": "", "Fecha_Prov": "", "Caudal__l_": "", "Codigo": "SC105", "Nombre_de": "Las Norias", "Subtipo": "Convencional", "Municipio": "Santa Cruz", "X_UTM": 230279.560370, "Y__UTM": 3177002.805750, "Altitud__m": 21, "Paraje": "Costa de Maldonado", "Peligrosid": "BAJO", "Estado": "Inactiva" }, "geometry": { "type": "Point", "coordinates": [ -17.760485, 28.692173 ] } },
{ "type": "Feature", "properties": { "OBJECTID": 13, "Inscripci": "", "Fecha_Prov": "", "Caudal__l_": "", "Codigo": "PA101", "Nombre_de": "La Fuerza", "Subtipo": "Convencional", "Municipio": "El Paso", "X_UTM": 214596.472210, "Y__UTM": 3175669.840910, "Altitud__m": 158, "Paraje": "Barranco de Las Angustias", "Peligrosid": "BAJO", "Estado": "Activa" }, "geometry": { "type": "Point", "coordinates": [ -17.920495, 28.676789 ] } },
{ "type": "Feature", "properties": { "OBJECTID": 14, "Inscripci": "", "Fecha_Prov": "", "Caudal__l_": "", "Codigo": "PA102", "Nombre_de": "La Puntilla", "Subtipo": "Convencional", "Municipio": "El Paso", "X_UTM": 214756.280000, "Y__UTM": 3175911.240000, "Altitud__m": 170, "Paraje": "Hoyo de La Higuera", "Peligrosid": "MUY BAJO", "Estado": "Inactiva" }, "geometry": { "type": "Point", "coordinates": [ -17.918922, 28.679 ] } },
{ "type": "Feature", "properties": { "OBJECTID": 15, "Inscripci": "", "Fecha_Prov": "", "Caudal__l_": "", "Codigo": "TJ105", "Nombre_de": "Poris de Candelaria", "Subtipo": "Convencional", "Municipio": "Tijarafe", "X_UTM": 209491.250000, "Y__UTM": 3178740.070000, "Altitud__m": 8, "Paraje": "El Poris de Candelaria", "Peligrosid": "ALTO", "Estado": "Inactiva" }, "geometry": { "type": "Point", "coordinates": [ -17.973461, 28.703327 ] } },
{ "type": "Feature", "properties": { "OBJECTID": 16, "Inscripci": "", "Fecha_Prov": "", "Caudal__l_": "", "Codigo": "PA109", "Nombre_de": "La Fajana", "Subtipo": "Convencional", "Municipio": "El Paso", "X_UTM": 216086.227190, "Y__UTM": 3177091.641190, "Altitud__m": 250, "Paraje": "Barranco Las Angustias-Hacienda del Cura", "Peligrosid": "BAJO", "Estado": "Inactiva" }, "geometry": { "type": "Point", "coordinates": [ -17.905621, 28.689934 ] } },
{ "type": "Feature", "properties": { "OBJECTID": 17, "Inscripci": "", "Fecha_Prov": "", "Caudal__l_": "", "Codigo": "TZ103", "Nombre_de": "Morrina o Vicente Hdez Fe", "Subtipo": "Convencional", "Municipio": "Tazacorte", "X_UTM": 212742.795810, "Y__UTM": 3173567.133300, "Altitud__m": 50, "Paraje": "Barranco  Las Angustias", "Peligrosid": "MUY BAJO", "Estado": "Activa" }, "geometry": { "type": "Point", "coordinates": [ -17.938913, 28.657423 ] } },
{ "type": "Feature", "properties": { "OBJECTID": 18, "Inscripci": "", "Fecha_Prov": "", "Caudal__l_": "", "Codigo": "LL201", "Nombre_de": "Zona Alta", "Subtipo": "Convencional", "Municipio": "Los Llanos", "X_UTM": 213398.000000, "Y__UTM": 3174177.000000, "Altitud__m": 75, "Paraje": "Barranco Las Angustias", "Peligrosid": "MUY BAJO", "Estado": "Activa" }, "geometry": { "type": "Point", "coordinates": [ -17.93237, 28.663066 ] } },
{ "type": "Feature", "properties": { "OBJECTID": 19, "Inscripci": "", "Fecha_Prov": "", "Caudal__l_": "", "Codigo": "LL203", "Nombre_de": "Las Casitas-El Remolino", "Subtipo": "Convencional", "Municipio": "Los Llanos", "X_UTM": 213835.000000, "Y__UTM": 3175201.000000, "Altitud__m": 125, "Paraje": "Barranco  Las Angustias", "Peligrosid": "MUY BAJO", "Estado": "Activa" }, "geometry": { "type": "Point", "coordinates": [ -17.928161, 28.672394 ] } },
{ "type": "Feature", "properties": { "OBJECTID": 20, "Inscripci": "", "Fecha_Prov": "", "Caudal__l_": "", "Codigo": "LL202", "Nombre_de": "Heredamiento Los Duques-EL Tablero", "Subtipo": "Convencional", "Municipio": "Los Llanos", "X_UTM": 213671.000000, "Y__UTM": 3174601.000000, "Altitud__m": 100, "Paraje": "Barranco Las Angustias", "Peligrosid": "MUY BAJO", "Estado": "Activa" }, "geometry": { "type": "Point", "coordinates": [ -17.929687, 28.666949 ] } },
{ "type": "Feature", "properties": { "OBJECTID": 21, "Inscripci": "", "Fecha_Prov": "", "Caudal__l_": "", "Codigo": "TZ104", "Nombre_de": "La Prosperidad", "Subtipo": "Convencional", "Municipio": "Tazacorte", "X_UTM": 213035.706000, "Y__UTM": 3173895.266590, "Altitud__m": 55, "Paraje": "Barranco Las Angustias", "Peligrosid": "BAJO", "Estado": "Activa" }, "geometry": { "type": "Point", "coordinates": [ -17.936002, 28.660446 ] } },
{ "type": "Feature", "properties": { "OBJECTID": 22, "Inscripci": "", "Fecha_Prov": "", "Caudal__l_": "", "Codigo": "TZ102", "Nombre_de": "Juan Graje", "Subtipo": "Convencional", "Municipio": "Tazacorte", "X_UTM": 212413.882500, "Y__UTM": 3173282.137740, "Altitud__m": 37, "Paraje": "El Puerto", "Peligrosid": "BAJO", "Estado": "Inactiva" }, "geometry": { "type": "Point", "coordinates": [ -17.942203, 28.654781 ] } },
{ "type": "Feature", "properties": { "OBJECTID": 23, "Inscripci": "", "Fecha_Prov": "", "Caudal__l_": "", "Codigo": "TZ101", "Nombre_de": "Candelaria-Las Angustias I", "Subtipo": "Convencional", "Municipio": "Tazacorte", "X_UTM": 212056.000000, "Y__UTM": 3173031.000000, "Altitud__m": 16, "Paraje": "El Puerto", "Peligrosid": "BAJO", "Estado": "Inactiva" }, "geometry": { "type": "Point", "coordinates": [ -17.945797, 28.652438 ] } },
{ "type": "Feature", "properties": { "OBJECTID": 24, "Inscripci": "", "Fecha_Prov": "", "Caudal__l_": "", "Codigo": "TZ101", "Nombre_de": "Candelaria-Las Angustias II", "Subtipo": "Convencional", "Municipio": "Tazacorte", "X_UTM": 212295.170000, "Y__UTM": 3173034.710000, "Altitud__m": 16, "Paraje": "El Puerto", "Peligrosid": "BAJO", "Estado": "Inactiva" }, "geometry": { "type": "Point", "coordinates": [ -17.943354, 28.652524 ] } },
{ "type": "Feature", "properties": { "OBJECTID": 25, "Inscripci": "", "Fecha_Prov": "", "Caudal__l_": "", "Codigo": "TZ101", "Nombre_de": "Candelaria-Las Angustias III", "Subtipo": "Convencional", "Municipio": "Tazacorte", "X_UTM": 212537.890000, "Y__UTM": 3173192.180000, "Altitud__m": 24, "Paraje": "Barranco Las Angustias", "Peligrosid": "BAJO", "Estado": "Inactiva" }, "geometry": { "type": "Point", "coordinates": [ -17.940913, 28.653998 ] } },
{ "type": "Feature", "properties": { "OBJECTID": 26, "Inscripci": "", "Fecha_Prov": "", "Caudal__l_": "", "Codigo": "TZ105", "Nombre_de": "G.S.Colonizacion", "Subtipo": "Convencional", "Municipio": "Tazacorte", "X_UTM": 212277.595140, "Y__UTM": 3172559.524160, "Altitud__m": 8, "Paraje": "Barranco Tenisca-Los Tarajales", "Peligrosid": "MUY BAJO", "Estado": "Inactiva" }, "geometry": { "type": "Point", "coordinates": [ -17.943414, 28.648237 ] } },
{ "type": "Feature", "properties": { "OBJECTID": 27, "Inscripci": "", "Fecha_Prov": "", "Caudal__l_": "", "Codigo": "TZ106", "Nombre_de": "La Fuerza de Tenisca", "Subtipo": "Convencional", "Municipio": "Tazacorte", "X_UTM": 212431.000000, "Y__UTM": 3172462.000000, "Altitud__m": 14, "Paraje": "Barranco Tenisca-Los Tarajales", "Peligrosid": "BAJO", "Estado": "Activa" }, "geometry": { "type": "Point", "coordinates": [ -17.941822, 28.647392 ] } },
{ "type": "Feature", "properties": { "OBJECTID": 28, "Inscripci": "", "Fecha_Prov": "", "Caudal__l_": "", "Codigo": "TZ107", "Nombre_de": "San Miguel", "Subtipo": "Convencional", "Municipio": "Tazacorte", "X_UTM": 212785.485710, "Y__UTM": 3172481.464680, "Altitud__m": 32, "Paraje": "Barranco Tenisca", "Peligrosid": "MUY BAJO", "Estado": "Activa" }, "geometry": { "type": "Point", "coordinates": [ -17.938204, 28.647646 ] } },
{ "type": "Feature", "properties": { "OBJECTID": 29, "Inscripci": "", "Fecha_Prov": "", "Caudal__l_": "", "Codigo": "TZ108", "Nombre_de": "El Salto", "Subtipo": "Convencional", "Municipio": "Tazacorte", "X_UTM": 213520.790000, "Y__UTM": 3172430.910000, "Altitud__m": 106, "Paraje": "El Salto-Barranco Tenisca", "Peligrosid": "MUY BAJO", "Estado": "Activa" }, "geometry": { "type": "Point", "coordinates": [ -17.930677, 28.647353 ] } },
{ "type": "Feature", "properties": { "OBJECTID": 30, "Inscripci": "", "Fecha_Prov": "", "Caudal__l_": "", "Codigo": "TZ109", "Nombre_de": "San Antonio", "Subtipo": "Convencional", "Municipio": "Tazacorte", "X_UTM": 212694.095870, "Y__UTM": 3171764.029640, "Altitud__m": 4, "Paraje": "Acantilados Tazacorte", "Peligrosid": "MUY BAJO", "Estado": "Activa" }, "geometry": { "type": "Point", "coordinates": [ -17.938958, 28.641158 ] } },
{ "type": "Feature", "properties": { "OBJECTID": 31, "Inscripci": "", "Fecha_Prov": "", "Caudal__l_": "", "Codigo": "TZ111", "Nombre_de": "San Isidro", "Subtipo": "Convencional", "Municipio": "Tazacorte", "X_UTM": 213574.000000, "Y__UTM": 3170476.971540, "Altitud__m": 80, "Paraje": "San Ididro", "Peligrosid": "MUY BAJO", "Estado": "Activa" }, "geometry": { "type": "Point", "coordinates": [ -17.929644, 28.629751 ] } },
{ "type": "Feature", "properties": { "OBJECTID": 32, "Inscripci": "", "Fecha_Prov": "", "Caudal__l_": "", "Codigo": "TZ113", "Nombre_de": "San Luis", "Subtipo": "Convencional", "Municipio": "Tazacorte", "X_UTM": 214359.840800, "Y__UTM": 3170276.982150, "Altitud__m": 137, "Paraje": "Montana de La Laguna", "Peligrosid": "BAJO", "Estado": "Inactiva" }, "geometry": { "type": "Point", "coordinates": [ -17.921565, 28.628122 ] } },
{ "type": "Feature", "properties": { "OBJECTID": 33, "Inscripci": "", "Fecha_Prov": "", "Caudal__l_": "", "Codigo": "TZ114", "Nombre_de": "Fondo de la Montana", "Subtipo": "Convencional", "Municipio": "Tazacorte", "X_UTM": 214588.874750, "Y__UTM": 3170039.920830, "Altitud__m": 164, "Paraje": "Montana de La Laguna", "Peligrosid": "MUY BAJO", "Estado": "Inactiva" }, "geometry": { "type": "Point", "coordinates": [ -17.919165, 28.626035 ] } },
{ "type": "Feature", "properties": { "OBJECTID": 34, "Inscripci": "", "Fecha_Prov": "", "Caudal__l_": "", "Codigo": "SC106", "Nombre_de": "Hdos Mario Fdez Glez", "Subtipo": "Convencional", "Municipio": "Santa Cruz", "X_UTM": 230191.019400, "Y__UTM": 3177275.691890, "Altitud__m": 25, "Paraje": "Barranco del Carmen", "Peligrosid": "MUY BAJO", "Estado": "Inactiva" }, "geometry": { "type": "Point", "coordinates": [ -17.761455, 28.694615 ] } },
{ "type": "Feature", "properties": { "OBJECTID": 35, "Inscripci": "", "Fecha_Prov": "", "Caudal__l_": "", "Codigo": "SC108", "Nombre_de": "La Caldereta o Polvorin", "Subtipo": "Convencional", "Municipio": "Santa Cruz", "X_UTM": 230804.334850, "Y__UTM": 3178741.622840, "Altitud__m": 50, "Paraje": "Barranco Seco", "Peligrosid": "MUY BAJO", "Estado": "Inactiva" }, "geometry": { "type": "Point", "coordinates": [ -17.75553, 28.707959 ] } },
{ "type": "Feature", "properties": { "OBJECTID": 36, "Inscripci": "", "Fecha_Prov": "", "Caudal__l_": "", "Codigo": "SC109", "Nombre_de": "El Roque", "Subtipo": "Convencional", "Municipio": "Santa Cruz", "X_UTM": 229058.255430, "Y__UTM": 3176800.383730, "Altitud__m": 125, "Paraje": "Barranco de La Madera", "Peligrosid": "BAJO", "Estado": "Activa" }, "geometry": { "type": "Point", "coordinates": [ -17.772925, 28.690092 ] } },
{ "type": "Feature", "properties": { "OBJECTID": 37, "Inscripci": "", "Fecha_Prov": "", "Caudal__l_": "", "Codigo": "BB201", "Nombre_de": "Amargavino", "Subtipo": "Convencional", "Municipio": "Brena Baja", "X_UTM": 227915.755060, "Y__UTM": 3171311.938670, "Altitud__m": 400, "Paraje": "Las Ledas", "Peligrosid": "BAJO", "Estado": "Activa" }, "geometry": { "type": "Point", "coordinates": [ -17.783297, 28.64037 ] } },
{ "type": "Feature", "properties": { "OBJECTID": 38, "Inscripci": "", "Fecha_Prov": "", "Caudal__l_": "", "Codigo": "BB202", "Nombre_de": "Bajo Campo de Futbol", "Subtipo": "Convencional", "Municipio": "Brena Baja", "X_UTM": 227965.695290, "Y__UTM": 3171331.474390, "Altitud__m": 400, "Paraje": "Las Ledas", "Peligrosid": "MEDIO", "Estado": "Inactiva" }, "geometry": { "type": "Point", "coordinates": [ -17.782792, 28.640557 ] } },
{ "type": "Feature", "properties": { "OBJECTID": 39, "Inscripci": "", "Fecha_Prov": "", "Caudal__l_": "", "Codigo": "SS204", "Nombre_de": "Herradura 1", "Subtipo": "Convencional", "Municipio": "San Andres y Sauces", "X_UTM": 229031.049810, "Y__UTM": 3190383.490980, "Altitud__m": 100, "Paraje": "Barranco de La Herradura", "Peligrosid": "MUY BAJO", "Estado": "Inactiva" }, "geometry": { "type": "Point", "coordinates": [ -17.776442, 28.812548 ] } },
{ "type": "Feature", "properties": { "OBJECTID": 40, "Inscripci": "", "Fecha_Prov": "", "Caudal__l_": "", "Codigo": "SS205", "Nombre_de": "La Fajana-Perna-Herradura 2", "Subtipo": "Convencional", "Municipio": "San Andres y Sauces", "X_UTM": 227966.770040, "Y__UTM": 3189765.925260, "Altitud__m": 250, "Paraje": "Barranco de La Herradura", "Peligrosid": "MUY BAJO", "Estado": "Inactiva" }, "geometry": { "type": "Point", "coordinates": [ -17.787188, 28.806755 ] } },
{ "type": "Feature", "properties": { "OBJECTID": 41, "Inscripci": "", "Fecha_Prov": "", "Caudal__l_": "", "Codigo": "SS101", "Nombre_de": "California", "Subtipo": "Convencional", "Municipio": "San Andres y Sauces", "X_UTM": 230511.465420, "Y__UTM": 3189056.153950, "Altitud__m": 25, "Paraje": "Barranco del Agua", "Peligrosid": "BAJO", "Estado": "Activa" }, "geometry": { "type": "Point", "coordinates": [ -17.760972, 28.800892 ] } },
{ "type": "Feature", "properties": { "OBJECTID": 42, "Inscripci": "", "Fecha_Prov": "", "Caudal__l_": "", "Codigo": "SS203", "Nombre_de": "San Juan", "Subtipo": "Convencional", "Municipio": "San Andres y Sauces", "X_UTM": 229405.157060, "Y__UTM": 3187347.234210, "Altitud__m": 208, "Paraje": "Barranco de San Juan", "Peligrosid": "MUY BAJO", "Estado": "Activa" }, "geometry": { "type": "Point", "coordinates": [ -17.771888, 28.785253 ] } },
{ "type": "Feature", "properties": { "OBJECTID": 43, "Inscripci": "", "Fecha_Prov": "", "Caudal__l_": "", "Codigo": "BB101", "Nombre_de": "Cancajos-Cantillo", "Subtipo": "Convencional", "Municipio": "Brena Baja", "X_UTM": 230094.971860, "Y__UTM": 3172661.566920, "Altitud__m": 11, "Paraje": "Los Cancajos", "Peligrosid": "MEDIO", "Estado": "Inactiva" }, "geometry": { "type": "Point", "coordinates": [ -17.761345, 28.652994 ] } },
{ "type": "Feature", "properties": { "OBJECTID": 44, "Inscripci": "", "Fecha_Prov": "", "Caudal__l_": "", "Codigo": "PA116", "Nombre_de": "La Puntilla 2", "Subtipo": "Convencional", "Municipio": "El Paso", "X_UTM": 214747.930000, "Y__UTM": 3175923.970000, "Altitud__m": 176, "Paraje": "Hoyo de La Higuera", "Peligrosid": "MUY BAJO", "Estado": "Inactiva" }, "geometry": { "type": "Point", "coordinates": [ -17.91901, 28.679113 ] } },
{ "type": "Feature", "properties": { "OBJECTID": 45, "Inscripci": "", "Fecha_Prov": "", "Caudal__l_": "", "Codigo": "PA128", "Nombre_de": "Llano de la Pina 2", "Subtipo": "Convencional", "Municipio": "El Paso", "X_UTM": 221199.925800, "Y__UTM": 3173791.208920, "Altitud__m": 833, "Paraje": "Virgen del Pino", "Peligrosid": "BAJO", "Estado": "Inactiva" }, "geometry": { "type": "Point", "coordinates": [ -17.852533, 28.661293 ] } },
{ "type": "Feature", "properties": { "OBJECTID": 46, "Inscripci": "", "Fecha_Prov": "", "Caudal__l_": "", "Codigo": "SC138", "Nombre_de": "El Castano", "Subtipo": "Convencional", "Municipio": "Santa Cruz", "X_UTM": 227721.000000, "Y__UTM": 3176410.000000, "Altitud__m": 355, "Paraje": "Barranco Los Pajaritos", "Peligrosid": "MUY BAJO", "Estado": "Inactiva" }, "geometry": { "type": "Point", "coordinates": [ -17.786504, 28.686292 ] } },
{ "type": "Feature", "properties": { "OBJECTID": 47, "Inscripci": "", "Fecha_Prov": "", "Caudal__l_": "", "Codigo": "BA106", "Nombre_de": "Unelco Interior 5", "Subtipo": "Convencional", "Municipio": "Brena Alta", "X_UTM": 229542.345000, "Y__UTM": 3174012.812870, "Altitud__m": 5, "Paraje": "Playa Los Guinchos", "Peligrosid": "MUY BAJO", "Estado": "Inactiva" }, "geometry": { "type": "Point", "coordinates": [ -17.767314, 28.665061 ] } },
{ "type": "Feature", "properties": { "OBJECTID": 48, "Inscripci": "", "Fecha_Prov": "", "Caudal__l_": "", "Codigo": "BA107", "Nombre_de": "Unelco", "Subtipo": "Convencional", "Municipio": "Brena Alta", "X_UTM": 229412.880000, "Y__UTM": 3174107.160000, "Altitud__m": 8, "Paraje": "Los Guinchos", "Peligrosid": "ALTO", "Estado": "Inactiva" }, "geometry": { "type": "Point", "coordinates": [ -17.76866, 28.665885 ] } },
{ "type": "Feature", "properties": { "OBJECTID": 49, "Inscripci": "", "Fecha_Prov": "", "Caudal__l_": "", "Codigo": "BA108", "Nombre_de": "(Disa) Casa del Capitan", "Subtipo": "Convencional", "Municipio": "Brena Alta", "X_UTM": 229418.440000, "Y__UTM": 3174113.270000, "Altitud__m": 10, "Paraje": "Los Guinchos", "Peligrosid": "ALTO", "Estado": "Inactiva" }, "geometry": { "type": "Point", "coordinates": [ -17.768604, 28.665941 ] } },
{ "type": "Feature", "properties": { "OBJECTID": 50, "Inscripci": "", "Fecha_Prov": "", "Caudal__l_": "", "Codigo": "BB103", "Nombre_de": "El Fuerte", "Subtipo": "Convencional", "Municipio": "Brena Baja", "X_UTM": 229696.000000, "Y__UTM": 3173465.000000, "Altitud__m": 25, "Paraje": "El Fuerte", "Peligrosid": "MUY BAJO", "Estado": "Inactiva" }, "geometry": { "type": "Point", "coordinates": [ -17.765613, 28.660155 ] } },
{ "type": "Feature", "properties": { "OBJECTID": 51, "Inscripci": "", "Fecha_Prov": "", "Caudal__l_": "", "Codigo": "BA112", "Nombre_de": "El Polvorin", "Subtipo": "Convencional", "Municipio": "Brena Alta", "X_UTM": 228900.074990, "Y__UTM": 3175610.141210, "Altitud__m": 108, "Paraje": "Valle La Luna", "Peligrosid": "MUY BAJO", "Estado": "Inactiva" }, "geometry": { "type": "Point", "coordinates": [ -17.774259, 28.679328 ] } },
{ "type": "Feature", "properties": { "OBJECTID": 52, "Inscripci": "", "Fecha_Prov": "", "Caudal__l_": "", "Codigo": "TJ102", "Nombre_de": "Jurado", "Subtipo": "Convencional", "Municipio": "Tijarafe", "X_UTM": 209836.563210, "Y__UTM": 3178436.351920, "Altitud__m": 26, "Paraje": "Barranco Jurado", "Peligrosid": "MUY ALTO", "Estado": "Inactiva" }, "geometry": { "type": "Point", "coordinates": [ -17.969853, 28.700667 ] } },
{ "type": "Feature", "properties": { "OBJECTID": 53, "Inscripci": "", "Fecha_Prov": "", "Caudal__l_": "", "Codigo": "TJ103", "Nombre_de": "Salto del Jurado", "Subtipo": "Convencional", "Municipio": "Tijarafe", "X_UTM": 210343.501270, "Y__UTM": 3178643.781440, "Altitud__m": 151, "Paraje": "Barranco Jurado", "Peligrosid": "ALTO", "Estado": "Inactiva" }, "geometry": { "type": "Point", "coordinates": [ -17.964723, 28.702651 ] } },
{ "type": "Feature", "properties": { "OBJECTID": 54, "Inscripci": "", "Fecha_Prov": "", "Caudal__l_": "", "Codigo": "SS207", "Nombre_de": "Los Tilos", "Subtipo": "Convencional", "Municipio": "San Andres y Sauces", "X_UTM": 227055.997110, "Y__UTM": 3188217.737860, "Altitud__m": 401, "Paraje": "Los Tilos", "Peligrosid": "MUY BAJO", "Estado": "Activa" }, "geometry": { "type": "Point", "coordinates": [ -17.796138, 28.792605 ] } },
{ "type": "Feature", "properties": { "OBJECTID": 55, "Inscripci": "", "Fecha_Prov": "", "Caudal__l_": "", "Codigo": "SS206", "Nombre_de": "El Palomar", "Subtipo": "Convencional", "Municipio": "San Andres y Sauces", "X_UTM": 228368.746590, "Y__UTM": 3188702.486410, "Altitud__m": 229, "Paraje": "Barranco Los Tilos", "Peligrosid": "BAJO", "Estado": "Inactiva" }, "geometry": { "type": "Point", "coordinates": [ -17.782819, 28.797253 ] } },
{ "type": "Feature", "properties": { "OBJECTID": 56, "Inscripci": "", "Fecha_Prov": "", "Caudal__l_": "", "Codigo": "BA109", "Nombre_de": "Ruston", "Subtipo": "Convencional", "Municipio": "Brena Alta", "X_UTM": 229340.950000, "Y__UTM": 3174240.890000, "Altitud__m": 18, "Paraje": "Finca Manolo Blahnik", "Peligrosid": "MUY BAJO", "Estado": "Inactiva" }, "geometry": { "type": "Point", "coordinates": [ -17.769427, 28.667076 ] } },
{ "type": "Feature", "properties": { "OBJECTID": 57, "Inscripci": "", "Fecha_Prov": "", "Caudal__l_": "", "Codigo": "TZ117", "Nombre_de": "Las Hoyas", "Subtipo": "Convencional", "Municipio": "Tazacorte", "X_UTM": 214827.459650, "Y__UTM": 3167110.970910, "Altitud__m": 41, "Paraje": "Las Hoyas", "Peligrosid": "MUY BAJO", "Estado": "Inactiva" }, "geometry": { "type": "Point", "coordinates": [ -17.915998, 28.599684 ] } },
{ "type": "Feature", "properties": { "OBJECTID": 58, "Inscripci": "", "Fecha_Prov": "", "Caudal__l_": "", "Codigo": "MZ101", "Nombre_de": "Las Goteras", "Subtipo": "Convencional", "Municipio": "Mazo", "X_UTM": 230151.254990, "Y__UTM": 3166298.336840, "Altitud__m": 43, "Paraje": "El Posito", "Peligrosid": "BAJO", "Estado": "Inactiva" }, "geometry": { "type": "Point", "coordinates": [ -17.759268, 28.595635 ] } },
{ "type": "Feature", "properties": { "OBJECTID": 59, "Inscripci": "", "Fecha_Prov": "", "Caudal__l_": "", "Codigo": "LL102", "Nombre_de": "Pena Horeb", "Subtipo": "Convencional", "Municipio": "Los Llanos", "X_UTM": 215577.659320, "Y__UTM": 3165866.508680, "Altitud__m": 45, "Paraje": "Puerto Naos", "Peligrosid": "MUY BAJO", "Estado": "Activa" }, "geometry": { "type": "Point", "coordinates": [ -17.908026, 28.58863 ] } },
{ "type": "Feature", "properties": { "OBJECTID": 60, "Inscripci": "", "Fecha_Prov": "", "Caudal__l_": "", "Codigo": "FC103", "Nombre_de": "Rosas del Banco", "Subtipo": "Convencional", "Municipio": "Fuencaliente", "X_UTM": 218669.793840, "Y__UTM": 3158736.945410, "Altitud__m": 50, "Paraje": "El Banco", "Peligrosid": "MUY BAJO", "Estado": "Inactiva" }, "geometry": { "type": "Point", "coordinates": [ -17.874696, 28.52503 ] } },
{ "type": "Feature", "properties": { "OBJECTID": 61, "Inscripci": "", "Fecha_Prov": "", "Caudal__l_": "", "Codigo": "FC102", "Nombre_de": "El Delirio", "Subtipo": "Convencional", "Municipio": "Fuencaliente", "X_UTM": 218761.180340, "Y__UTM": 3158239.421690, "Altitud__m": 75, "Paraje": "Los Andenes", "Peligrosid": "ALTO", "Estado": "Inactiva" }, "geometry": { "type": "Point", "coordinates": [ -17.873641, 28.520564 ] } },
{ "type": "Feature", "properties": { "OBJECTID": 62, "Inscripci": "", "Fecha_Prov": "", "Caudal__l_": "", "Codigo": "FC101", "Nombre_de": "Zamora", "Subtipo": "Convencional", "Municipio": "Fuencaliente", "X_UTM": 218848.659960, "Y__UTM": 3157492.772990, "Altitud__m": 59, "Paraje": "La Zamora", "Peligrosid": "MUY BAJO", "Estado": "Inactiva" }, "geometry": { "type": "Point", "coordinates": [ -17.872566, 28.513852 ] } },
{ "type": "Feature", "properties": { "OBJECTID": 63, "Inscripci": "", "Fecha_Prov": "", "Caudal__l_": "", "Codigo": "BA110", "Nombre_de": "Campo de futbol", "Subtipo": "Convencional", "Municipio": "Brena Alta", "X_UTM": 229297.018270, "Y__UTM": 3174479.774220, "Altitud__m": 19, "Paraje": "Bajamar", "Peligrosid": "MUY BAJO", "Estado": "Inactiva" }, "geometry": { "type": "Point", "coordinates": [ -17.769932, 28.66922 ] } },
{ "type": "Feature", "properties": { "OBJECTID": 64, "Inscripci": "", "Fecha_Prov": "", "Caudal__l_": "", "Codigo": "TZ112", "Nombre_de": "Taparratana", "Subtipo": "Galeria", "Municipio": "Tazacorte", "X_UTM": 213286.000000, "Y__UTM": 3169955.000000, "Altitud__m": 7, "Paraje": "Punta del perdido", "Peligrosid": "MUY BAJO", "Estado": "Inactiva" }, "geometry": { "type": "Point", "coordinates": [ -17.932456, 28.624982 ] } },
{ "type": "Feature", "properties": { "OBJECTID": 65, "Inscripci": "", "Fecha_Prov": "", "Caudal__l_": "", "Codigo": "SC110", "Nombre_de": "Ntra. Sra. del Carmen", "Subtipo": "Convencional", "Municipio": "Santa Cruz", "X_UTM": 229270.983730, "Y__UTM": 3177770.808610, "Altitud__m": 150, "Paraje": "Barranco del Carmen", "Peligrosid": "MUY BAJO", "Estado": "Activa" }, "geometry": { "type": "Point", "coordinates": [ -17.77098, 28.698886 ] } },
{ "type": "Feature", "properties": { "OBJECTID": 66, "Inscripci": "", "Fecha_Prov": "", "Caudal__l_": "", "Codigo": "SC112", "Nombre_de": "De las Lajas", "Subtipo": "Convencional", "Municipio": "Santa Cruz", "X_UTM": 227898.497720, "Y__UTM": 3177742.684230, "Altitud__m": 308, "Paraje": "Barranco de la Madera", "Peligrosid": "MUY BAJO", "Estado": "Activa" }, "geometry": { "type": "Point", "coordinates": [ -17.785007, 28.698344 ] } },
{ "type": "Feature", "properties": { "OBJECTID": 67, "Inscripci": "", "Fecha_Prov": "", "Caudal__l_": "", "Codigo": "SC113", "Nombre_de": "Miraflores", "Subtipo": "Convencional", "Municipio": "Santa Cruz", "X_UTM": 228273.558320, "Y__UTM": 3178519.189230, "Altitud__m": 331, "Paraje": "Barranco del Carmen", "Peligrosid": "MUY BAJO", "Estado": "Inactiva" }, "geometry": { "type": "Point", "coordinates": [ -17.781358, 28.705424 ] } },
{ "type": "Feature", "properties": { "OBJECTID": 68, "Inscripci": "", "Fecha_Prov": "", "Caudal__l_": "", "Codigo": "SC201", "Nombre_de": "Tenagua", "Subtipo": "Convencional", "Municipio": "Santa Cruz", "X_UTM": 230331.046440, "Y__UTM": 3179741.863070, "Altitud__m": 200, "Paraje": "Barranco Seco", "Peligrosid": "MUY BAJO", "Estado": "Activa" }, "geometry": { "type": "Point", "coordinates": [ -17.760607, 28.716878 ] } },
{ "type": "Feature", "properties": { "OBJECTID": 69, "Inscripci": "", "Fecha_Prov": "", "Caudal__l_": "", "Codigo": "PA201", "Nombre_de": "Capote", "Subtipo": "Convencional", "Municipio": "El Paso", "X_UTM": 221539.787810, "Y__UTM": 3174148.361290, "Altitud__m": 862, "Paraje": "El Riachuelo", "Peligrosid": "BAJO", "Estado": "Inactiva" }, "geometry": { "type": "Point", "coordinates": [ -17.849147, 28.664586 ] } },
{ "type": "Feature", "properties": { "OBJECTID": 70, "Inscripci": "", "Fecha_Prov": "", "Caudal__l_": "", "Codigo": "BA111", "Nombre_de": "Avenida", "Subtipo": "Galeria", "Municipio": "Brena Alta", "X_UTM": 229290.422750, "Y__UTM": 3174494.109940, "Altitud__m": 19, "Paraje": "Bajamar", "Peligrosid": "MUY BAJO", "Estado": "Inactiva" }, "geometry": { "type": "Point", "coordinates": [ -17.770003, 28.669348 ] } },
{ "type": "Feature", "properties": { "OBJECTID": 71, "Inscripci": "", "Fecha_Prov": "", "Caudal__l_": "", "Codigo": "BA201", "Nombre_de": "Costa Las Brenas", "Subtipo": "Convencional", "Municipio": "Brena Alta", "X_UTM": 228419.053060, "Y__UTM": 3173326.353360, "Altitud__m": 204, "Paraje": "Barranco La Laja", "Peligrosid": "MUY BAJO", "Estado": "Inactiva" }, "geometry": { "type": "Point", "coordinates": [ -17.778633, 28.658637 ] } },
{ "type": "Feature", "properties": { "OBJECTID": 72, "Inscripci": "", "Fecha_Prov": "", "Caudal__l_": "", "Codigo": "BA202", "Nombre_de": "Brezal", "Subtipo": "Convencional", "Municipio": "Brena Alta", "X_UTM": 227846.000000, "Y__UTM": 3172225.000000, "Altitud__m": 345, "Paraje": "Miranda", "Peligrosid": "MUY BAJO", "Estado": "Inactiva" }, "geometry": { "type": "Point", "coordinates": [ -17.784228, 28.648587 ] } },
{ "type": "Feature", "properties": { "OBJECTID": 73, "Inscripci": "", "Fecha_Prov": "", "Caudal__l_": "", "Codigo": "PA220", "Nombre_de": "Llano de la Pina", "Subtipo": "Convencional", "Municipio": "El Paso", "X_UTM": 221590.848760, "Y__UTM": 3173808.269900, "Altitud__m": 850, "Paraje": "Virgen del Pino", "Peligrosid": "BAJO", "Estado": "Inactiva" }, "geometry": { "type": "Point", "coordinates": [ -17.848542, 28.661531 ] } },
{ "type": "Feature", "properties": { "OBJECTID": 74, "Inscripci": "", "Fecha_Prov": "", "Caudal__l_": "", "Codigo": "GF101", "Nombre_de": "Del Noroeste", "Subtipo": "Convencional", "Municipio": "Garafia", "X_UTM": 210791.920000, "Y__UTM": 3189471.950000, "Altitud__m": 400, "Paraje": "Barranco de Briesta", "Peligrosid": "MUY BAJO", "Estado": "Activa" }, "geometry": { "type": "Point", "coordinates": [ -17.962895, 28.800359 ] } },
{ "type": "Feature", "properties": { "OBJECTID": 75, "Inscripci": "", "Fecha_Prov": "", "Caudal__l_": "", "Codigo": "PL104", "Nombre_de": "Nogales", "Subtipo": "Convencional", "Municipio": "PuntaLlana", "X_UTM": 231282.842460, "Y__UTM": 3184989.733250, "Altitud__m": 75, "Paraje": "Barranco Nogales", "Peligrosid": "MEDIO", "Estado": "Inactiva" }, "geometry": { "type": "Point", "coordinates": [ -17.752114, 28.764391 ] } },
{ "type": "Feature", "properties": { "OBJECTID": 76, "Inscripci": "", "Fecha_Prov": "", "Caudal__l_": "", "Codigo": "PL105", "Nombre_de": "La Fabrica", "Subtipo": "Convencional", "Municipio": "PuntaLlana", "X_UTM": 230678.557960, "Y__UTM": 3186513.818280, "Altitud__m": 75, "Paraje": "Barranco El Cubo", "Peligrosid": "MEDIO", "Estado": "Inactiva" }, "geometry": { "type": "Point", "coordinates": [ -17.758658, 28.778006 ] } },
{ "type": "Feature", "properties": { "OBJECTID": 77, "Inscripci": "", "Fecha_Prov": "", "Caudal__l_": "", "Codigo": "TJ210", "Nombre_de": "El Rayo", "Subtipo": "Convencional", "Municipio": "Tijarafe", "X_UTM": 214216.000000, "Y__UTM": 3175527.000000, "Altitud__m": 157, "Paraje": "Barranco de Las Angustias", "Peligrosid": "MUY BAJO", "Estado": "Activa" }, "geometry": { "type": "Point", "coordinates": [ -17.924348, 28.675417 ] } },
{ "type": "Feature", "properties": { "OBJECTID": 78, "Inscripci": "", "Fecha_Prov": "", "Caudal__l_": "", "Codigo": "PG101", "Nombre_de": "Garome", "Subtipo": "Convencional", "Municipio": "Punta Gorda", "X_UTM": 207842.115690, "Y__UTM": 3183024.953860, "Altitud__m": 63, "Paraje": "Barranco Garome", "Peligrosid": "ALTO", "Estado": "Inactiva" }, "geometry": { "type": "Point", "coordinates": [ -17.991422, 28.74158 ] } },
{ "type": "Feature", "properties": { "OBJECTID": 79, "Inscripci": "", "Fecha_Prov": "", "Caudal__l_": "", "Codigo": "PG103", "Nombre_de": "Palito I", "Subtipo": "Convencional", "Municipio": "Punta Gorda", "X_UTM": 207608.238790, "Y__UTM": 3183301.573340, "Altitud__m": 41, "Paraje": "Barranco del Roque", "Peligrosid": "MUY BAJO", "Estado": "Inactiva" }, "geometry": { "type": "Point", "coordinates": [ -17.993885, 28.74402 ] } },
{ "type": "Feature", "properties": { "OBJECTID": 80, "Inscripci": "", "Fecha_Prov": "", "Caudal__l_": "", "Codigo": "PG107", "Nombre_de": "Tinizara", "Subtipo": "Convencional", "Municipio": "Punta Gorda", "X_UTM": 207800.046120, "Y__UTM": 3182887.229410, "Altitud__m": 9, "Paraje": "Barranco Garome", "Peligrosid": "MUY BAJO", "Estado": "Inactiva" }, "geometry": { "type": "Point", "coordinates": [ -17.991817, 28.740329 ] } },
{ "type": "Feature", "properties": { "OBJECTID": 81, "Inscripci": "", "Fecha_Prov": "", "Caudal__l_": "", "Codigo": "PG106", "Nombre_de": "Agua Dulce", "Subtipo": "Convencional", "Municipio": "Punta Gorda", "X_UTM": 206804.616080, "Y__UTM": 3186186.016650, "Altitud__m": 225, "Paraje": "El Polear", "Peligrosid": "BAJO", "Estado": "Inactiva" }, "geometry": { "type": "Point", "coordinates": [ -18.002849, 28.769837 ] } },
{ "type": "Feature", "properties": { "OBJECTID": 82, "Inscripci": "", "Fecha_Prov": "", "Caudal__l_": "", "Codigo": "BA105", "Nombre_de": "Don Pelayo", "Subtipo": "Convencional", "Municipio": "Brena Alta", "X_UTM": 229565.000000, "Y__UTM": 3173845.330000, "Altitud__m": 12, "Paraje": "Los Guinchos", "Peligrosid": "MUY BAJO", "Estado": "Inactiva" }, "geometry": { "type": "Point", "coordinates": [ -17.767043, 28.663556 ] } },
{ "type": "Feature", "properties": { "OBJECTID": 83, "Inscripci": "", "Fecha_Prov": "", "Caudal__l_": "", "Codigo": "TJ211", "Nombre_de": "Tijarafe", "Subtipo": "Convencional", "Municipio": "Tijarafe", "X_UTM": 211444.510000, "Y__UTM": 3179704.840000, "Altitud__m": 665, "Paraje": "Candelaria", "Peligrosid": "BAJO", "Estado": "Inactiva" }, "geometry": { "type": "Point", "coordinates": [ -17.953735, 28.712462 ] } },
{ "type": "Feature", "properties": { "OBJECTID": 84, "Inscripci": "", "Fecha_Prov": "", "Caudal__l_": "", "Codigo": "PG102", "Nombre_de": "Palito II", "Subtipo": "Convencional", "Municipio": "Punta Gorda", "X_UTM": 207632.886560, "Y__UTM": 3183160.566210, "Altitud__m": 26, "Paraje": "Barranco del Roque", "Peligrosid": "MUY BAJO", "Estado": "Inactiva" }, "geometry": { "type": "Point", "coordinates": [ -17.993597, 28.742755 ] } }
]
}
